{
  "country": "France",
  "country_code": "FR",
  "language": "French",
  "language_code": "fr",
  "script": "Latin",
  "currency": "EUR",
  "given_names": {
    "male": [
      "Jean",
      "Pierre",
      "Michel",
      "Louis",
      "Nicolas",
      "Thomas",
      "Lucas",
      "Hugo",
      "Gabriel",
      "Arthur",
      "Jules",
      "Léo",
      "Adam",
      "Raphaël",
      "Paul",
      "Antoine",
      "Maxime",
      "Alexandre",
      "Théo",
      "Nathan"
    ],
    "female": [
      "Marie",
      "Jeanne",
      "Camille",
      "Léa",
      "Chloé",
      "Manon",
      "Emma",
      "Sarah",
      "Louise",
      "Alice",
      "Lina",
      "Inès",
      "Jade",
      "Lola",
      "Juliette",
      "Clara",
      "Anaïs",
      "Zoé",
      "Charlotte",
      "Eva"
    ],
    "unisex": [
      "Camille",
      "Dominique",
      "Claude",
      "Sacha",
      "Maxime",
      "Alix"
    ]
  },
  "surnames": [
    "Martin",
    "Bernard",
    "Thomas",
    "Petit",
    "Robert",
    "Richard",
    "Durand",
    "Dubois",
    "Moreau",
    "Laurent",
    "Simon",
    "Michel",
    "Lefebvre",
    "Leroy",
    "Roux",
    "David",
    "Bertrand",
    "Morel",
    "Fournier",
    "Girard"
  ],
  "places": [
    {
      "city": "Paris",
      "region": "Île-de-France",
      "timezone": "Europe/Paris",
      "lat": 48.8566,
      "lon": 2.3522
    },
    {
      "city": "Marseille",
      "region": "Provence-Alpes-Côte d'Azur",
      "timezone": "Europe/Paris",
      "lat": 43.2965,
      "lon": 5.3698
    },
    {
      "city": "Lyon",
      "region": "Auvergne-Rhône-Alpes",
      "timezone": "Europe/Paris",
      "lat": 45.764,
      "lon": 4.8357
    },
    {
      "city": "Toulouse",
      "region": "Occitanie",
      "timezone": "Europe/Paris",
      "lat": 43.6047,
      "lon": 1.4442
    },
    {
      "city": "Nice",
      "region": "Provence-Alpes-Côte d'Azur",
      "timezone": "Europe/Paris",
      "lat": 43.7102,
      "lon": 7.262
    },
    {
      "city": "Nantes",
      "region": "Pays de la Loire",
      "timezone": "Europe/Paris",
      "lat": 47.2184,
      "lon": -1.5536
    },
    {
      "city": "Strasbourg",
      "region": "Grand Est",
      "timezone": "Europe/Paris",
      "lat": 48.5734,
      "lon": 7.7521
    },
    {
      "city": "Montpellier",
      "region": "Occitanie",
      "timezone": "Europe/Paris",
      "lat": 43.6108,
      "lon": 3.8767
    },
    {
      "city": "Bordeaux",
      "region": "Nouvelle-Aquitaine",
      "timezone": "Europe/Paris",
      "lat": 44.8378,
      "lon": -0.5792
    },
    {
      "city": "Lille",
      "region": "Hauts-de-France",
      "timezone": "Europe/Paris",
      "lat": 50.6292,
      "lon": 3.0573
    },
    {
      "city": "Rennes",
      "region": "Bretagne",
      "timezone": "Europe/Paris",
      "lat": 48.1173,
      "lon": -1.6778
    },
    {
      "city": "Reims",
      "region": "Grand Est",
      "timezone": "Europe/Paris",
      "lat": 49.2583,
      "lon": 4.0317
    },
    {
      "city": "Toulon",
      "region": "Provence-Alpes-Côte d'Azur",
      "timezone": "Europe/Paris",
      "lat": 43.1242,
      "lon": 5.928
    },
    {
      "city": "Grenoble",
      "region": "Auvergne-Rhône-Alpes",
      "timezone": "Europe/Paris",
      "lat": 45.1885,
      "lon": 5.7245
    }
  ],
  "street_suffixes": [
    "Rue",
    "Avenue",
    "Boulevard",
    "Place",
    "Impasse",
    "Allée"
  ],
  "street_names": [
    "de la République",
    "Victor Hugo",
    "de la Gare",
    "des Écoles",
    "du Général de Gaulle",
    "Jean Jaurès",
    "de Paris",
    "de l'Église",
    "Pasteur",
    "de la Liberté"
  ],
  "address_format": "{number} {suffix} {street}",
  "postal_format": "#####",
  "phone_format": "06 ## ## ## ##",
  "email_domains": [
    "gmail.com",
    "orange.fr",
    "free.fr",
    "outlook.fr",
    "wanadoo.fr"
  ]
}
